{"id":"america-movil-telxius-west-coast-cable","name":"America Movil-Telxius West Coast Cable","cable_id":2054,"landing_points":[{"landing_point_id":5800,"id":"arica-chile","name":"Arica, Chile","latlon":"-18.473370,-70.306747","url":"#/landing-point/arica-chile"},{"landing_point_id":5930,"id":"lurin-peru","name":"Lurin, Peru","latlon":"-12.278525,-76.874286","url":"#/landing-point/lurin-peru"},{"landing_point_id":5849,"id":"puerto-san-jose-guatemala","name":"Puerto San Jose, Guatemala","latlon":"13.934610,-90.822216","url":"#/landing-point/puerto-san-jose-guatemala"},{"landing_point_id":9789,"id":"salinas-ecuador","name":"Salinas, Ecuador","latlon":"-2.228481,-81.009061","url":"#/landing-point/salinas-ecuador"},{"landing_point_id":3331,"id":"valparaso-chile","name":"Valparaíso, Chile","latlon":"-33.045531,-71.620309","url":"#/landing-point/valparaso-chile"}],"length":"8,790 km","rfs":"2021 Q1","owners":"América Móvil,  Telxius","url":null,"notes":null}
