{"id":"cabo-verde-telecom-domestic-submarine-cable-phase-3","name":"Cabo Verde Telecom Domestic Submarine Cable Phase 3","cable_id":2026,"landing_points":[{"landing_point_id":17395,"id":"nova-sintra-cape-verde","name":"Nova Sintra, Cape Verde","latlon":"14.872988,-24.695404","url":"#/landing-point/nova-sintra-cape-verde"},{"landing_point_id":17390,"id":"porto-novosanto-antao-cape-verde","name":"Porto Novo—Santo Antao, Cape Verde","latlon":"17.019203,-25.059442","url":"#/landing-point/porto-novosanto-antao-cape-verde"},{"landing_point_id":4257,"id":"praia-cape-verde","name":"Praia, Cape Verde","latlon":"14.923184,-23.521210","url":"#/landing-point/praia-cape-verde"},{"landing_point_id":17399,"id":"sal-rei-cape-verde","name":"Sal Rei, Cape Verde","latlon":"16.177175,-22.919038","url":"#/landing-point/sal-rei-cape-verde"},{"landing_point_id":17394,"id":"sao-filipe-cape-verde","name":"Sao Filipe, Cape Verde","latlon":"14.897146,-24.500922","url":"#/landing-point/sao-filipe-cape-verde"},{"landing_point_id":17401,"id":"sao-pedro-cape-verde","name":"Sao Pedro, Cape Verde","latlon":"16.823427,-25.060809","url":"#/landing-point/sao-pedro-cape-verde"},{"landing_point_id":17396,"id":"tarrafalsantiago-cape-verde","name":"Tarrafal—Santiago, Cape Verde","latlon":"15.276846,-23.751069","url":"#/landing-point/tarrafalsantiago-cape-verde"},{"landing_point_id":17393,"id":"vila-do-maio-cape-verde","name":"Vila do Maio, Cape Verde","latlon":"15.138357,-23.209785","url":"#/landing-point/vila-do-maio-cape-verde"}],"length":"n.a.","rfs":"2011","owners":"Cabo Verde Telecom (CVT)","url":"http://www.cvtelecom.cv","notes":null}
