{"id":"gondwana-2picot-2","name":"Gondwana-2/Picot-2","cable_id":2053,"landing_points":[{"landing_point_id":18082,"id":"mont-dore-new-caledonia","name":"Mont-Dore, New Caledonia","latlon":"-22.265409,166.563623","url":"#/landing-point/mont-dore-new-caledonia"},{"landing_point_id":5704,"id":"noumea-new-caledonia","name":"Noumea, New Caledonia","latlon":"-22.303032,166.439112","url":"#/landing-point/noumea-new-caledonia"},{"landing_point_id":18078,"id":"quanono-new-caledonia","name":"Quanono, New Caledonia","latlon":"-20.937041,167.260449","url":"#/landing-point/quanono-new-caledonia"},{"landing_point_id":4268,"id":"suva-fiji","name":"Suva, Fiji","latlon":"-18.123639,178.437446","url":"#/landing-point/suva-fiji"},{"landing_point_id":18079,"id":"tadine-new-caledonia","name":"Tadine, New Caledonia","latlon":"-21.548051,167.879516","url":"#/landing-point/tadine-new-caledonia"},{"landing_point_id":18080,"id":"vao-new-caledonia","name":"Vao, New Caledonia","latlon":"-22.671928,167.494238","url":"#/landing-point/vao-new-caledonia"},{"landing_point_id":18081,"id":"yate-new-caledonia","name":"Yate, New Caledonia","latlon":"-22.158964,166.945044","url":"#/landing-point/yate-new-caledonia"}],"length":"n.a.","rfs":"2022","owners":"OPT","url":"http://telecom.opt.nc","notes":null}
