{"id":"jupiter","name":"JUPITER","cable_id":1928,"landing_points":[{"landing_point_id":17478,"id":"cloverdale-or-united-states","name":"Cloverdale, OR, United States","latlon":"45.231055,-123.956361","url":"#/landing-point/cloverdale-or-united-states"},{"landing_point_id":10355,"id":"daet-philippines","name":"Daet, Philippines","latlon":"14.116617,122.949899","url":"#/landing-point/daet-philippines"},{"landing_point_id":4966,"id":"hermosa-beach-ca-united-states","name":"Hermosa Beach, CA, United States","latlon":"33.862237,-118.399546","url":"#/landing-point/hermosa-beach-ca-united-states"},{"landing_point_id":5887,"id":"maruyama-japan","name":"Maruyama, Japan","latlon":"35.037517,139.816956","url":"#/landing-point/maruyama-japan"},{"landing_point_id":5883,"id":"shima-japan","name":"Shima, Japan","latlon":"34.336834,136.874380","url":"#/landing-point/shima-japan"}],"length":"14,557 km","rfs":"2020 Q3","owners":"Amazon Web Services,  Facebook,  NTT,  PLDT,  PCCW,  Softbank Corp","url":null,"notes":null}
