{"id":"manatua","name":"Manatua","cable_id":1949,"landing_points":[{"landing_point_id":17324,"id":"aitutaki-cook-islands","name":"Aitutaki, Cook Islands","latlon":"-18.825714,-159.774899","url":"#/landing-point/aitutaki-cook-islands"},{"landing_point_id":9089,"id":"alofi-niue","name":"Alofi, Niue","latlon":"-19.016705,-169.916704","url":"#/landing-point/alofi-niue"},{"landing_point_id":5705,"id":"apia-samoa","name":"Apia, Samoa","latlon":"-13.833407,-171.766679","url":"#/landing-point/apia-samoa"},{"landing_point_id":9092,"id":"rarotonga-cook-islands","name":"Rarotonga, Cook Islands","latlon":"-21.224370,-159.769714","url":"#/landing-point/rarotonga-cook-islands"},{"landing_point_id":17378,"id":"toahotu-french-polynesia","name":"To'ahotu, French Polynesia","latlon":"-17.750446,-149.323363","url":"#/landing-point/toahotu-french-polynesia"},{"landing_point_id":14800,"id":"vaitape-french-polynesia","name":"Vaitape, French Polynesia","latlon":"-16.506281,-151.749531","url":"#/landing-point/vaitape-french-polynesia"}],"length":"3,634 km","rfs":"2020 June","owners":"OPT French Polynesia,  Samoa Submarine Cable Company,  Avaroa Cable Ltd.,  Telecom Niue","url":null,"notes":null}
