{"id":"palapa-ring-east","name":"Palapa Ring East","cable_id":1938,"landing_points":[{"landing_point_id":16672,"id":"agats-indonesia","name":"Agats, Indonesia","latlon":"-5.535632,138.121352","url":"#/landing-point/agats-indonesia"},{"landing_point_id":17096,"id":"baa-indonesia","name":"Baa, Indonesia","latlon":"-10.733335,123.035275","url":"#/landing-point/baa-indonesia"},{"landing_point_id":16681,"id":"kep-aru-indonesia","name":"Kep. Aru, Indonesia","latlon":"-6.194641,134.550186","url":"#/landing-point/kep-aru-indonesia"},{"landing_point_id":17097,"id":"kokar-indonesia","name":"Kokar, Indonesia","latlon":"-8.158312,124.453463","url":"#/landing-point/kokar-indonesia"},{"landing_point_id":17100,"id":"kota-mappi-indonesia","name":"Kota Mappi, Indonesia","latlon":"-7.102453,139.396498","url":"#/landing-point/kota-mappi-indonesia"},{"landing_point_id":14653,"id":"kupang-indonesia","name":"Kupang, Indonesia","latlon":"-10.183335,123.583322","url":"#/landing-point/kupang-indonesia"},{"landing_point_id":16630,"id":"manokwari-indonesia","name":"Manokwari, Indonesia","latlon":"-0.861465,134.062052","url":"#/landing-point/manokwari-indonesia"},{"landing_point_id":16665,"id":"nabire-indonesia","name":"Nabire, Indonesia","latlon":"-3.372230,135.501626","url":"#/landing-point/nabire-indonesia"},{"landing_point_id":16684,"id":"seba-indonesia","name":"Seba, Indonesia","latlon":"-10.457822,121.879904","url":"#/landing-point/seba-indonesia"},{"landing_point_id":17098,"id":"serwaru-indonesia","name":"Serwaru, Indonesia","latlon":"-8.158116,127.691498","url":"#/landing-point/serwaru-indonesia"},{"landing_point_id":17099,"id":"suemlaki-indonesia","name":"Suemlaki, Indonesia","latlon":"-8.052233,131.213054","url":"#/landing-point/suemlaki-indonesia"},{"landing_point_id":16659,"id":"supiori-indonesia","name":"Supiori, Indonesia","latlon":"-0.729507,135.638516","url":"#/landing-point/supiori-indonesia"},{"landing_point_id":17101,"id":"teluk-indonesia","name":"Teluk, Indonesia","latlon":"-2.202382,133.482145","url":"#/landing-point/teluk-indonesia"},{"landing_point_id":16683,"id":"tiakur-indonesia","name":"Tiakur, Indonesia","latlon":"-8.282921,125.573726","url":"#/landing-point/tiakur-indonesia"},{"landing_point_id":16575,"id":"timika-indonesia","name":"Timika, Indonesia","latlon":"-4.550306,136.889565","url":"#/landing-point/timika-indonesia"},{"landing_point_id":16632,"id":"tual-indonesia","name":"Tual, Indonesia","latlon":"-5.626575,132.752092","url":"#/landing-point/tual-indonesia"},{"landing_point_id":14652,"id":"waingapu-indonesia","name":"Waingapu, Indonesia","latlon":"-9.646104,120.252903","url":"#/landing-point/waingapu-indonesia"},{"landing_point_id":16660,"id":"yapen-indonesia","name":"Yapen, Indonesia","latlon":"-1.756117,136.156973","url":"#/landing-point/yapen-indonesia"}],"length":"6,300 km","rfs":"2019 October","owners":"Indonesian Government,  Moratelindo,  Telekom PT SmartFren","url":null,"notes":null}
