{"id":"southeast-asia-japan-cable-2-sjc2","name":"Southeast Asia-Japan Cable 2 (SJC2)","cable_id":1958,"landing_points":[{"landing_point_id":4183,"id":"busan-south-korea","name":"Busan, South Korea","latlon":"35.170281,128.999481","url":"#/landing-point/busan-south-korea"},{"landing_point_id":5937,"id":"changi-south-singapore","name":"Changi South, Singapore","latlon":"1.389438,103.987017","url":"#/landing-point/changi-south-singapore"},{"landing_point_id":5885,"id":"chikura-japan","name":"Chikura, Japan","latlon":"34.976702,139.954676","url":"#/landing-point/chikura-japan"},{"landing_point_id":5856,"id":"chung-hom-kok-china","name":"Chung Hom Kok, China","latlon":"22.222106,114.203077","url":"#/landing-point/chung-hom-kok-china"},{"landing_point_id":5980,"id":"fangshan-taiwan","name":"Fangshan, Taiwan","latlon":"22.249206,120.662156","url":"#/landing-point/fangshan-taiwan"},{"landing_point_id":16316,"id":"lingang-china","name":"Lingang, China","latlon":"30.935676,121.896115","url":"#/landing-point/lingang-china"},{"landing_point_id":17229,"id":"quy-nhon-vietnam","name":"Quy Nhon, Vietnam","latlon":"13.782962,109.219656","url":"#/landing-point/quy-nhon-vietnam"},{"landing_point_id":5883,"id":"shima-japan","name":"Shima, Japan","latlon":"34.336895,136.874282","url":"#/landing-point/shima-japan"},{"landing_point_id":4265,"id":"songkhla-thailand","name":"Songkhla, Thailand","latlon":"7.078571,100.596956","url":"#/landing-point/songkhla-thailand"},{"landing_point_id":5982,"id":"tanshui-taiwan","name":"Tanshui, Taiwan","latlon":"25.181602,121.462644","url":"#/landing-point/tanshui-taiwan"}],"length":"10,500 km","rfs":"2021 Q1","owners":"China Mobile,  Chunghwa Telecom,  Facebook,  KDDI,  Singtel,  SK Broadband,  VNPT-Vinaphone,  True Corporation,  Telin","url":null,"notes":null}
