{"id":"trans-pacific-express-tpe-cable-system","name":"Trans-Pacific Express (TPE) Cable System","cable_id":1513,"landing_points":[{"landing_point_id":5802,"id":"chongming-china","name":"Chongming, China","latlon":"31.619880,121.395212","url":"#/landing-point/chongming-china"},{"landing_point_id":17590,"id":"geoje-south-korea","name":"Geoje, South Korea","latlon":"34.894317,128.621185","url":"#/landing-point/geoje-south-korea"},{"landing_point_id":5887,"id":"maruyama-japan","name":"Maruyama, Japan","latlon":"35.037517,139.816956","url":"#/landing-point/maruyama-japan"},{"landing_point_id":3711,"id":"nedonna-beach-or-united-states","name":"Nedonna Beach, OR, United States","latlon":"45.643738,-123.940071","url":"#/landing-point/nedonna-beach-or-united-states"},{"landing_point_id":6012,"id":"qingdao-china","name":"Qingdao, China","latlon":"36.087077,120.342576","url":"#/landing-point/qingdao-china"},{"landing_point_id":5982,"id":"tanshui-taiwan","name":"Tanshui, Taiwan","latlon":"25.181357,121.462595","url":"#/landing-point/tanshui-taiwan"}],"length":"17,000 km","rfs":"2008 August","owners":"China Telecom,  China Unicom,  Chunghwa Telecom,  KT,  Verizon,  NTT,  AT&T","url":"http://tpecable.org","notes":null}
