{"id":"alaska-united-southeast-au-se","name":"Alaska United Southeast (AU-SE)","cable_id":1567,"landing_points":[{"landing_point_id":8553,"id":"angoon-ak-united-states","name":"Angoon, AK, United States","latlon":"57.501838,-134.582254","url":"#/landing-point/angoon-ak-united-states"},{"landing_point_id":8552,"id":"hawk-inlet-ak-united-states","name":"Hawk Inlet, AK, United States","latlon":"58.128107,-134.741824","url":"#/landing-point/hawk-inlet-ak-united-states"},{"landing_point_id":8550,"id":"petersburg-ak-united-states","name":"Petersburg, AK, United States","latlon":"56.807612,-132.970047","url":"#/landing-point/petersburg-ak-united-states"},{"landing_point_id":8554,"id":"sitka-ak-united-states","name":"Sitka, AK, United States","latlon":"57.052912,-135.334402","url":"#/landing-point/sitka-ak-united-states"},{"landing_point_id":8549,"id":"wrangell-ak-united-states","name":"Wrangell, AK, United States","latlon":"56.470796,-132.383817","url":"#/landing-point/wrangell-ak-united-states"}],"length":"626 km","rfs":"2008 November","owners":"GCI","url":"https://www.gci.com/","notes":null}
