{"id":"honotua","name":"Honotua","cable_id":1556,"landing_points":[{"landing_point_id":14804,"id":"huahine-french-polynesia","name":"Huahine, French Polynesia","latlon":"-16.730061,-151.000068","url":"#/landing-point/huahine-french-polynesia"},{"landing_point_id":8973,"id":"kawaihae-hi-united-states","name":"Kawaihae, HI, United States","latlon":"20.039990,-155.831413","url":"#/landing-point/kawaihae-hi-united-states"},{"landing_point_id":14798,"id":"moorea-french-polynesia","name":"Moorea, French Polynesia","latlon":"-17.538776,-149.829561","url":"#/landing-point/moorea-french-polynesia"},{"landing_point_id":8974,"id":"papenoo-french-polynesia","name":"Papenoo, French Polynesia","latlon":"-17.512336,-149.441084","url":"#/landing-point/papenoo-french-polynesia"},{"landing_point_id":14799,"id":"uturoa-french-polynesia","name":"Uturoa, French Polynesia","latlon":"-16.730915,-151.443037","url":"#/landing-point/uturoa-french-polynesia"},{"landing_point_id":14800,"id":"vaitape-french-polynesia","name":"Vaitape, French Polynesia","latlon":"-16.506330,-151.749531","url":"#/landing-point/vaitape-french-polynesia"}],"length":"4,805 km","rfs":"2010 September","owners":"OPT French Polynesia","url":"http://www.opt.pf","notes":null}
