{"id":"japan-information-highway-jih","name":"Japan Information Highway (JIH)","cable_id":1075,"landing_points":[{"landing_point_id":7467,"id":"akita-japan","name":"Akita, Japan","latlon":"39.692019,140.343616","url":"#/landing-point/akita-japan"},{"landing_point_id":5885,"id":"chikura-japan","name":"Chikura, Japan","latlon":"34.976702,139.954676","url":"#/landing-point/chikura-japan"},{"landing_point_id":7836,"id":"ibaraki-japan","name":"Ibaraki, Japan","latlon":"36.342180,140.269935","url":"#/landing-point/ibaraki-japan"},{"landing_point_id":7834,"id":"ishikari-japan","name":"Ishikari, Japan","latlon":"43.171388,141.315515","url":"#/landing-point/ishikari-japan"},{"landing_point_id":5888,"id":"miyazaki-japan","name":"Miyazaki, Japan","latlon":"32.097663,131.294622","url":"#/landing-point/miyazaki-japan"},{"landing_point_id":5886,"id":"okinawa-japan","name":"Okinawa, Japan","latlon":"26.212375,127.680805","url":"#/landing-point/okinawa-japan"},{"landing_point_id":7835,"id":"sendai-japan","name":"Sendai, Japan","latlon":"38.314359,140.758191","url":"#/landing-point/sendai-japan"}],"length":"5,150 km","rfs":"1999","owners":"KDDI","url":null,"notes":null}
