{"name":"Northern Mariana Islands","cables":[{"id":"atisa","name":"Atisa","cable_id":1874},{"id":"mariana-guam-cable","name":"Mariana-Guam Cable","cable_id":1757}],"landing_points":[{"id":"tachognya-beach-tinian-northern-mariana-islands","name":"Tachognya Beach, Tinian, Northern Mariana Islands","landing_point_id":16552},{"id":"sasanlagu-rota-northern-mariana-islands","name":"Sasanlagu, Rota, Northern Mariana Islands","landing_point_id":16551},{"id":"sugar-dock-saipan-northern-mariana-islands","name":"Sugar Dock, Saipan, Northern Mariana Islands","landing_point_id":16550},{"id":"tinian-northern-mariana-islands","name":"Tinian, Northern Mariana Islands","landing_point_id":13410},{"id":"saipan-northern-mariana-islands","name":"Saipan, Northern Mariana Islands","landing_point_id":13408},{"id":"rota-northern-mariana-islands","name":"Rota, Northern Mariana Islands","landing_point_id":13409},{"id":"tanguisson-point-gu-united-states","name":"Tanguisson Point, GU, United States","landing_point_id":3251},{"id":"piti-gu-united-states","name":"Piti, GU, United States","landing_point_id":5973}],"latlon":[{"latlon":"14.958767,145.629258"},{"latlon":"14.144937,145.134337"},{"latlon":"15.151809,145.699571"},{"latlon":"15.011123,145.637461"},{"latlon":"15.177737,145.750938"},{"latlon":"14.151846,145.212462"}]}
