{"name":"Malta","cables":[{"id":"malta-gozo-cable","name":"Malta-Gozo Cable","cable_id":1947},{"id":"italy-malta","name":"Italy-Malta","cable_id":1301},{"id":"vodafone-malta-sicily-cable-system-vmscs","name":"Vodafone Malta-Sicily Cable System (VMSCS)","cable_id":1249},{"id":"go-1-mediterranean-cable-system","name":"GO-1 Mediterranean Cable System","cable_id":1581},{"id":"malta-italy-interconnector","name":"Malta-Italy Interconnector","cable_id":2007},{"id":"melita-1","name":"Melita 1","cable_id":1602}],"landing_points":[{"id":"golden-bay-malta","name":"Golden Bay, Malta","landing_point_id":17134},{"id":"mgarr-ix-xini-malta","name":"Mgarr ix-Xini, Malta","landing_point_id":17133},{"id":"msida-malta","name":"Msida, Malta","landing_point_id":4058},{"id":"balluta-bay-malta","name":"Balluta Bay, Malta","landing_point_id":6170},{"id":"st-pauls-bay-malta","name":"St. Paul's Bay, Malta","landing_point_id":8561},{"id":"bahar-ic-caghaq-malta","name":"Bahar ic-Caghaq, Malta","landing_point_id":9028},{"id":"marina-di-ragusa-italy","name":"Marina di Ragusa, Italy","landing_point_id":17323},{"id":"catania-italy","name":"Catania, Italy","landing_point_id":3214},{"id":"mazara-del-vallo-italy","name":"Mazara del Vallo, Italy","landing_point_id":3215},{"id":"pozzallo-italy","name":"Pozzallo, Italy","landing_point_id":8972}],"latlon":[{"latlon":"35.938701,14.344458"},{"latlon":"36.020451,14.271325"},{"latlon":"35.898711,14.488146"},{"latlon":"35.934062,14.380041"},{"latlon":"35.950505,14.415588"},{"latlon":"35.934062,14.458752"}]}
